name;latitude;longitude
Zbiornik Wody Stara Orunia;54.31912;18.62431
Kozacza Gora;54.32366;18.59739
Gora Gradowa;54.35766;18.64022
Pacholek;54.41167;18.55079
Bazylika Mariacka;54.34986;18.65314
Kolibki;54.46697;18.54308
Gora Donas;54.46921;18.43721
Latarnia Morska Sopot;54.44538;18.57047
Klif Orlowski;54.4854;18.5682
Gnilna Gora;54.43424;18.54686